[
    {
    "name": "BALI",
    "street": "Zum Strothebach",
    "housenumber": "22",
    "postcode": "33175",
    "city": "Bad Lippspringe",
    "geo": {
        "lat": 51.764834,
        "lng": 8.829053
    }
    },
    {
    "name": "HÖRDEN AM HARZ",
    "street": "Gänsewinkel",
    "housenumber": "1",
    "postcode": "37412",
    "city": "Hörden am Harz",
    "geo": {
        "lat": 51.856192,
        "lng": 10.399095
    }
    },
    {
    "name": "HATTORF AM HARZ",
    "street": "Otto Escher Str.",
    "housenumber": "15",
    "postcode": "37197",
    "city": "Hattorf am Harz",
    "geo": {
        "lat": 51.629167,
        "lng": 9.994884
    }
    },
    {
    "name": "WEILAND",
    "street": "Rudolf-Diesel Str.",
    "housenumber": "8",
    "city": "Hattorf am Harz",
    "geo": {
        "lat": 51.630292,
        "lng": 9.998839
    }
    },
    {
    "name": "Bad Oeynhausen",
    "subtitle": "Dachanlage in Bad Oeynhausen",
    "image": "../images/projects/am-Banneberg.jpg",
    "filter": ["all", "dachanlage"],
    "street": "Am Bonneberg",
    "housenumber": "30a",
    "postcode": "32545",
    "city": "Bad Oeynhausen",
    "geo": {
        "lat": 52.235137,
        "lng": 8.791283
    }
    },
    {
    "name": "Großalmerode",
    "subtitle": "Dachanlage in Großalmerode",
    "image": "../images/projects/erbsmuehle.jpg",
    "filter": ["all", "dachanlage"],
    "street": "Bei der Erbsmühle",
    "housenumber": "1",
    "postcode": "37247",
    "city": "Großalmerode",
    "geo": {
        "lat": 51.265399,
        "lng": 9.806277
    }
    },
    {
    "name": "SCHLOSS HOLTE",
    "street": "Görlitzer Str.",
    "housenumber": "18",
    "postcode": "33758",
    "city": "Schloß Holte Stukenbrock",
    "geo": {
        "lat": 51.897532,
        "lng": 8.700049
    }
    },
    {
    "name": "LICHTENAU",
    "street": "Glasebachstr.",
    "housenumber": "302",
    "postcode": "33165",
    "city": "Lichtenau",
    "geo": {
        "lat": 51.772946,
        "lng": 8.701375
    }
    },
    {
    "name": "GREIFSWALDER STR.",
    "street": "Greifswalder Str.",
    "housenumber": "8",
    "postcode": "33106",
    "city": "Paderborn",
    "geo": {
        "lat": 51.746549,
        "lng": 8.799073
    }
    },
    {
    "name": "HUMFELD",
    "street": "Fermke",
    "housenumber": "998",
    "postcode": "32694",
    "city": "Dörentrup",
    "geo": {
        "lat": 52.046086,
        "lng": 9.015814
    }
    },
    {
    "name": "SALZKOTTEN",
    "geo": {
        "lat": 51.703604,
        "lng": 8.704893
    }
    },
    {
    "name": "GROSSRUDESTÄDT",
    "geo": {
        "lat": 52.717898,
        "lng": 11.452288
    }
    },
    {
    "name": "Diedorf",
    "subtitle": "Dachanlage in Diedorf",
    "image": "../images/projects/Diedorf.jpg",
    "filter": ["all", "dachanlage"],
    "street": "Im Gut",
    "housenumber": "27",
    "postcode": "99988",
    "city": "Diedorf OT Katharinenberg",
    "geo": {
        "lat": 51.162927,
        "lng": 10.981112
    }
    },
    {
        "name": "Leuenberg",
        "subtitle": "Dachanlage in Leuenberg",
        "image": "../images/projects/Leuenberg.jpg",
        "filter": ["all", "dachanlage"],
        "size": "lg:w-1/3 xl:w-1/4",
        "geo": {
            "lat": 52.703291269,
            "lng": 13.885506113
        }
    },
    {
        "name": "Leuenberg",
        "subtitle": "Solarenergie in Leuenberg",
        "image": "../images/projects/PV17.jpg",
        "filter": ["all", "dachanlage"],
        "size": "lg:w-1/3 xl:w-1/4",
        "geo": {
            "lat": 50.684883,
            "lng": 7.159921
        }
    },
    {
        "name": "Hagen",
        "subtitle": "Modernste Photovoltaik-Technologie",
        "image": "../images/projects/Hagen.jpg",
        "filter": ["all", "dachanlage"],
        "size": "lg:w-1/3 xl:w-1/4",
        "geo": {
            "lat": 51.360170999,
            "lng": 7.467405999
        }
    },
    {
        "name": "Leuenberg",
        "subtitle": "Dachanlage in Leuenberg",
        "image": "../images/projects/Leuenberg2.jpg",
        "filter": ["all", "dachanlage"],
        "size": "lg:w-1/3 xl:w-1/4"
    },
    {
        "name": "Baruth",
        "subtitle": "Energieeffiziente Solaranlage",
        "image": "../images/projects/baruth.jpg",
        "filter": ["all", "dachanlage"],
        "size": "lg:w-1/3 xl:w-1/4",
        "geo": {
            "lat": 52.049326999,
            "lng": 13.504113
        }
    },
    {
        "name": "Berlin",
        "subtitle": "Saubere Energie für morgen",
        "image": "../images/projects/berlin.jpg",
        "filter": ["all", "dachanlage"],
        "size": "lg:w-1/3 xl:w-1/4",
        "geo": {
            "lat": 52.517669999,
            "lng": 13.405537999
        }
    },
    {
        "name": "Oldenburg",
        "subtitle": "Hochleistungssolarzellen im Einsatz",
        "image": "../images/projects/oldenburg.jpg",
        "filter": ["all", "dachanlage"],
        "size": "lg:w-1/3 xl:w-1/4",
        "geo": {
            "lat": 53.140024999,
            "lng": 8.212993
        }
    },
    {
        "name": "Gadebusch",
        "subtitle": "Grüne Energie für nachhaltige Gebäude",
        "image": "../images/projects/gadebusch.jpg",
        "filter": ["all", "dachanlage"],
        "size": "lg:w-1/3 xl:w-1/4",
        "geo": {
            "lat": 53.701800999,
            "lng": 11.118521999
        }
    },
    {
    "name": "Krevese",
    "size": "lg:w-1/3 xl:w-1/4",
    "image": "../images/projects/Krevese_4.webp",
    "filter": ["all", "dachanlage"],
    "modules": 7096,
    "capacity": 2199.76,
    "annual": 2034768.75,
    "year": 2018,
    "subtitle": "Erneuerbare Energien im Herzen von Krevese",
    "description": "Die Solardachanlage in Krevese bietet umweltfreundliche, effiziente Energiegewinnung. Mit modernster Technologie nutzen die Anlage Sonnenenergie, um Ihr Zuhause nachhaltig mit Strom zu versorgen.",
    "street": "Hauptstraße",
    "housenumber": "51",
    "postcode": "39606",
    "city": "Osterburg",
    "geo": {
        "lat": 52.821385,
        "lng": 11.819638
    }
    },
    {
    "name": "Drüsedau",
    "size": "lg:w-1/3 xl:w-1/4",
    "image": "../images/projects/Druesedau29_7.webp",
    "filter": ["all", "dachanlage"],
    "modules": 1949,
    "capacity": 604.19,
    "annual": 563000,
    "year": 2018,
    "subtitle": "Solarenergie im Kern von Drüsedau",
    "description": "In Drüsedau erstrahlt unsere Dachanlage als Symbol für erneuerbare Energie. Zentral gelegen, nutzt sie effizient Solarkraft zur umweltfreundlichen Stromerzeugung – ein leuchtendes Beispiel für nachhaltige Energie im Kern des Ortes.",
    "street": "Drüsedau",
    "housenumber": "29",
    "postcode": "39606",
    "city": "Altmärkische Höhe",
    "geo": {
        "lat": 52.822129,
        "lng": 11.781092
    }
    },
    {
    "name": "Krumke",
    "size": "lg:w-1/3 xl:w-2/4",
    "image": "../images/projects/Krumke_6.webp",
    "filter": ["all", "dachanlage"],
    "modules": 921,
    "capacity": 349.8,
    "annual": 330381.12,
    "year": 2021,
    "subtitle": "Aufdachanlage beim Reiterhof in Krumke",
    "description": "Die Aufdachanlage beim Reiterhof in Krumke liefert ca. 330.380 kwH Solarenergie. Unsere Photovoltaik-Lösung bringt nachhaltige Energie direkt aufs Dach – effizient und umweltschonend.",
    "street": "Lutherallee",
    "housenumber": "5",
    "postcode": "39606",
    "city": "Osterburg",
    "geo": {
        "lat": 52.825841,
        "lng": 11.815929
    }
    },
    {
    "name": "Kossebau",
    "size": "lg:w-1/3 xl:w-1/4",
    "image": "../images/projects/Kossebau7_5.webp",
    "filter": ["all", "dachanlage"],
    "modules": 1444,
    "capacity": 512.62,
    "annual": 482888.04,
    "year": 2019,
    "subtitle": "Energiegewinnung auf Dächern in Kossebau",
    "description": "Die Dachanlage in Kossebau verkörpert modernste Photovoltaik-Technologie. Auf Hausdächern installiert, wandelt sie Sonnenstrahlen effizient in umweltfreundliche Energie um – ein leuchtendes Beispiel für nachhaltiges Wohnen und Arbeiten.",
    "street": "Kastanienallee 7",
    "housenumber": "7",
    "postcode": "39606",
    "city": "Osterburg",
    "geo": {
        "lat": 52.823539,
        "lng": 11.812256
    }
    },
  
    {
    "name": "Lückstedt",
    "size": "lg:w-1/3 xl:w-1/4",
    "image": "../images/projects/Kossebau77_4.webp",
    "filter": ["all", "dachanlage"],
    "modules": 554,
    "capacity": 196.67,
    "annual": 181723.08,
    "year": 2019,
    "subtitle": "Dachanlage der Zukunft",
    "description": "Auf einem Bauernhofdach in Kossebau präsentiert unsere Dachanlage die Zukunft der Energie: Nachhaltige Photovoltaik-Technologie, die effizient Sonnenkraft in umweltfreundlichen Strom umwandelt.",
    "street": "Lückstedt",
    "housenumber": "77",
    "postcode": "39606",
    "city": "Altmärkische Höhe",
    "geo": {
        "lat": 52.828302,
        "lng": 11.781413
    }
    },
    {
    "name": "Lückstedt",
    "size": "lg:w-1/3 xl:w-1/4",
    "image": "../images/projects/Kossebau94_2.webp",
    "filter": ["all", "dachanlage"],
    "modules": 1980,
    "capacity": 702.9,
    "annual": 658617.3,
    "year": 2019,
    "subtitle": "Energiegewinnung auf Dächern in Lückstedt",
    "description": "Unsere Dachanlage in Kossebau setzt neue Maßstäbe in der Solarenergie. Durch modernste Photovoltaik-Technik wird Sonnenlicht effizient in sauberen, grünen Strom umgewandelt.",
    "street": "Lückstedt",
    "housenumber": "94",
    "postcode": "39606",
    "city": "Altmärkische Höhe",
    "geo": {
        "lat": 52.829402,
        "lng": 11.779183
    }
    },
    {
    "name": "LUCKSTEDT EA",
    "street": "Lückstedt",
    "housenumber": "94",
    "postcode": "39606",
    "city": "Altmärkische Höhe",
    "geo": {
        "lat": 52.829402,
        "lng": 11.779183
    }
    },
    {
    "name": "Freilandanlage Ostingersleben",
    "size": "lg:w-2/3 xl:w-1/4",
    "image": "../images/projects/Ostingersleben_2_2-scaled.webp",
    "filter": ["all", "freilandanlage"],
    "modules": 12000,
    "capacity": 4200,
    "annual": 4011000,
    "year": 2020,
    "subtitle": "Zukunftssichere Solarenergie in Ostingersleben",
    "description": "In Ostingersleben steht die zukunftsweisende Freilandanlage, welche mit modernster Photovoltaik-Technologie effizient Sonnenenergie in sauberen Strom umwandelt. Ein Vorreiterprojekt für nachhaltige Energie und Umweltschutz.",
    "street": "Alleringerslebener Weg",
    "postcode": "39343",
    "city": "Ostingersleben",
    "geo": {
        "lat": 52.071363,
        "lng": 11.186264
    }
    },
    {
    "name": "Freilandanlage Alleringersleben",
    "size": "lg:w-1/3 xl:w-1/4",
    "image": "../images/projects/Alleringersleben_9-scaled.webp",
    "filter": ["all", "freilandanlage"],
    "modules": 4582,
    "capacity": 1499.75,
    "annual": 1537243.75,
    "year": 2020,
    "subtitle": "Energie der Zukunft in Alleringersleben",
    "description": "Unsere Freilandanlage in Alleringersleben ist ein Meilenstein in der erneuerbaren Energiegewinnung. Mit fortschrittlicher Photovoltaik-Technik erzeugen wir umweltfreundlichen Strom, der nachhaltig und effizient ist – Energie der Zukunft, heute.",
    "street": "Am Schacht",
    "housenumber": "1",
    "postcode": "39343",
    "city": "Ingersleben",
    "geo": {
        "lat": 52.12849,
        "lng": 11.148036
    }
    },
    {
    "name": "Erxleben",
    "size": "lg:w-1/3 xl:w-2/4",
    "image": "../images/projects/Erxleben_2.webp",
    "filter": ["all", "dachanlage"],
    "modules": 2631,
    "capacity": 749.835,
    "annual": 700345.89,
    "year": 2019,
    "subtitle": "Solarenergie auf dem Bauernhof in Erxleben",
    "description": "Entdecken Sie die Dachsolaranlage auf unserem Bauernhof in Erxleben: Eine innovative Photovoltaik-Lösung, die umweltfreundliche Energie erzeugt und die Landwirtschaft nachhaltig unterstützt. Grüne Energie, effizient genutzt.",
    "street": "Möckern",
    "housenumber": "30",
    "postcode": "39606",
    "city": "Erxleben",
    "geo": {
        "lat": 52.268553,
        "lng": 11.393553
    }
    },
    {
    "name": "Freilandanlage Oschersleben",
    "size": "lg:w-2/3 xl:w-1/4",
    "image": "../images/projects/Oschersleben_4.webp",
    "filter": ["all", "freilandanlage"],
    "modules": 5625,
    "capacity": 1743.75,
    "annual": 1830937.5,
    "year": 2017,
    "subtitle": "Große Photovoltaikanlage im Zentrum von Oschersleben",
    "description": "Die Freilandanlage in Oschersleben revolutioniert die Energiegewinnung mit hochmoderner Photovoltaik-Technologie. Effizient, umweltfreundlich und zukunftsorientiert – für eine nachhaltige Energiezukunft.",
    "street": "Deponie Hornhäuser Str.",
    "postcode": "39387",
    "city": "Oschersleben OT Bode",
    "geo": {
        "lat": 52.048394,
        "lng": 11.285294
    }
    },
    {
    "name": "Dorf Mecklenburg",
    "subtitle": "Dachanlage in Dorf Mecklenburg",
    "image": "../images/projects/Dorf-Mecklenburg.jpg",
    "filter": ["all", "dachanlage"],
    "street": "Kletziner Strasse",
    "housenumber": "1",
    "postcode": "23972",
    "city": "Dorf Mecklenburg",
    "geo": {
        "lat": 53.949903,
        "lng": 11.471532
    }
    },
    {
    "name": "Lübesse",
    "size": "lg:w-1/3 xl:w-1/4",
    "image": "../images/projects/Lübesse.jpg",
    "filter": ["all", "dachanlage"],
    "subtitle": "6 Photovoltaikanlage in Lübesse",
    "street": "Schweriner Str.",
    "housenumber": "1",
    "postcode": "19077",
    "city": "Lübesse",
    "geo": {
        "lat": 53.494528,
        "lng": 11.372962
    }
    },
    {
    "name": "Friedland",
    "size": "lg:w-1/3 xl:w-1/4",
    "image": "../images/projects/Friedland.jpg",
    "filter": ["all", "dachanlage"],
    "subtitle": "Große Photovoltaikanlage in Friedland",
    "street": "Pleetzer Weg",
    "housenumber": "8a",
    "postcode": "17098",
    "city": "Friedland",
    "geo": {
        "lat": 53.668375,
        "lng": 13.124052
    }
    },
    {
    "name": "Freilandanlage in Friedland",
    "size": "lg:w-1/3 xl:w-1/4",
    "image": "../images/projects/Friedland2.jpg",
    "filter": ["all", "freilandanlage"],
    "subtitle": "Große Freilandanlage in Friedland",
    "street": "Pleetzer Weg",
    "postcode": "17098",
    "city": "Friedland",
    "geo": {
        "lat": 53.668375,
        "lng": 13.124052
    }
    },
    {
    "name": "ANGERMÜNDE",
    "street": "Südring",
    "housenumber": "11",
    "postcode": "16278",
    "city": "Angermünde",
    "geo": {
        "lat": 53.033777,
        "lng": 14.009245
    }
    },
    {
    "name": "Gadebusch",
    "size": "lg:w-2/3 xl:w-1/4",
    "image": "../images/projects/Gadebusch.jpg",
    "filter": ["all", "dachanlage"],
    "subtitle": "Dachanlage in Gadebusch",
    "street": "Wakenstädt",
    "housenumber": "51",
    "postcode": "19205",
    "city": "Gadebusch",
    "geo": {
        "lat": 53.831982,
        "lng": 11.179366
    }
    },
    {
    "name": "GADEBUSCH",
    "street": "Rosa Luxemburg Str.",
    "housenumber": "41",
    "postcode": "19205",
    "city": "Gadebusch",
    "geo": {
        "lat": 53.833142,
        "lng": 11.17443
    }
    },
    {
    "name": "Waren (Müritz)",
    "image": "../images/projects/Anklam.jpg",
    "filter": ["all", "dachanlage"],
    "street": "Pasewalker Allee",
    "housenumber": "23",
    "postcode": "17389",
    "city": "Waren (Müritz)",
    "geo": {
        "lat": 53.850361,
        "lng": 13.688532
    }
    },
    {
    "name": "BARNIN",
    "street": "Crivitzer Str.",
    "housenumber": "14a",
    "postcode": "19089",
    "city": "Barnin",
    "geo": {
        "lat": 53.766055,
        "lng": 11.337502
    }
    },
    {
    "name": "BARUTH",
    "street": "An der Düne",
    "housenumber": "15",
    "postcode": "15837",
    "city": "Baruth",
    "geo": {
        "lat": 52.014791,
        "lng": 13.52109
    }
    },
    {
    "name": "Rambow",
    "size": "lg:w-1/3 xl:w-1/4",
    "image": "../images/projects/Rambow_1.webp",
    "filter": ["all", "dachanlage"],
    "modules": 701,
    "capacity": 199.785,
    "annual": 190195.32,
    "year": 2017,
    "subtitle": "Effiziente Energiegewinnung in Rambow",
    "description": "Die Photovoltaik-Dachanlage auf einem Bauernhof in Rambow kombiniert Landwirtschaft mit grüner Energie. Durch modernste Technologie erzeugt sie effizient und umweltfreundlich Strom – ein Schritt in eine nachhaltigere Zukunft.",
    "street": "Rambower Hauptstraße",
    "housenumber": "41",
    "postcode": "19339",
    "city": "Plattenburg",
    "geo": {
        "lat": 53.082556,
        "lng": 11.966854
    }
    },
    {
    "name": "Werben",
    "size": "lg:w-1/3 xl:w-1/4",
    "image": "../images/projects/Werben_7.webp",
    "filter": ["all", "dachanlage"],
    "modules": 1122,
    "capacity": 319.77,
    "annual": 297066.33,
    "year": 2016,
    "subtitle": "Kraftwerke der Zukunft auf einem Landwirtschaftsbetrieb in Werben",
    "description": "In Werben verwandeln wir mit unserer Dachanlage auf einem großen Landwirtschaftsbetrieb mehrere Dächer in Kraftwerke der Zukunft. Durch die Nutzung fortschrittlicher Photovoltaik-Technik erzeugen wir nachhaltig und effizient Energie – ein Leuchtturmprojekt in der grünen Landwirtschaft.",
    "street": "Akazienweg",
    "housenumber": "1",
    "postcode": "39615",
    "city": "Werben OT Berge",
    "geo": {
        "lat": 53.101996,
        "lng": 11.998898
    }
    },
    {
    "name": "Schloss Grube",
    "size": "lg:w-1/3 xl:w-2/4",
    "image": "../images/projects/SchlossGrube_1-scaled.jpg",
    "filter": ["all", "dachanlage"],
    "modules": 2630,
    "capacity": 749.84,
    "annual": 698101.04,
    "year": 2017,
    "subtitle": "Zukunftsweisende Solartechnologie in Schloss Grube",
    "description": "Die Photovoltaik-Dachanlage auf einem alten Stall bei Schloss Grube beeindruckt mit 2630 modulesn. Sie besteht aus zukunftsweisender Solartechnologie, um nachhaltig und effizient Energie zu erzeugen – ein Beispiel für gelungene Energieinnovation.",
    "street": "Alter Viesäcker Weg",
    "postcode": "19336",
    "city": "Bad Wilsnack OT Grube",
    "geo": {
        "lat": 52.994768,
        "lng": 11.998007
    }
    },
    {
    "name": "Bredow",
    "subtitle": "Photovoltaik-Dachanlage in Bredow",
    "size": "lg:w-1/3 xl:w-2/4",
    "image": "../images/projects/Bredow.jpg",
    "filter": ["all", "dachanlage"],
    "street": "Nauener Landweg",
    "housenumber": "1a",
    "postcode": "14656",
    "city": "Brieselang Bredow",
    "geo": {
        "lat": 52.57213,
        "lng": 13.034845
    }
    },
    {
    "name": "Neuruppin",
    "subtitle": "Photovoltaik-Dachanlage in Neuruppin",
    "size": "lg:w-1/3 xl:w-1/4",
    "image": "../images/projects/Neuruppin.jpg",
    "filter": ["all", "dachanlage"],
    "street": "Nymurk-Ring",
    "housenumber": "2",
    "postcode": "16816",
    "city": "Neuruppin",
    "geo": {
        "lat": 52.923788,
        "lng": 12.804333
    }
    },
    {
        "name": "Neuruppin",
        "subtitle": "Photovoltaik-Dachanlage in Neuruppin",
        "size": "lg:w-1/3 xl:w-1/4",
        "image": "../images/projects/Neuruppin-zur-Mesche.jpg",
        "filter": ["all", "dachanlage"],
        "street": "Zur Mesche",
        "housenumber": "18",
        "postcode": "16816",
        "city": "Neuruppin",
        "geo": {
            "lat": 52.932265,
            "lng": 12.785547
        }
    },
    {
        "name": "Neuruppin",
        "subtitle": "Photovoltaik-Dachanlage in Neuruppin",
        "size": "lg:w-1/3 xl:w-1/4",
        "image": "../images/projects/Neuruppin2.jpg",
        "filter": ["all", "dachanlage"],
        "postcode": "16816",
        "city": "Neuruppin",
        "geo": {
            "lat": 52.923364999,
            "lng": 12.806498
        }
    },
    {
        "name": "Bernau",
        "subtitle": "Dachanlage in Bernau",
        "image": "../images/projects/Bernau-bei-Berlin.jpg",
        "filter": ["all", "dachanlage"],
        "size": "lg:w-1/3 xl:w-1/4",
        "geo": {
            "lat": 52.67982,
            "lng": 13.58708
        }
    },
    {
        "name": "Paderborn",
        "subtitle": "Sonnenkraft effektiv genutzt",
        "image": "../images/projects/Framkfurter-Weg.jpg",
        "filter": ["all", "dachanlage"],
        "size": "lg:w-1/3 xl:w-1/4",
        "geo": {
            "lat": 51.719600999,
            "lng": 8.757301
        }
    },
    {
        "name": "Friedland",
        "subtitle": "Dachanlage in Friedland",
        "image": "../images/projects/Friedland3-Halle.jpg",
        "filter": ["all", "dachanlage"],
        "size": "lg:w-1/3 xl:w-1/4",
        "geo": {
            "lat": 51.419790999,
            "lng": 9.913521
        }
    },
    {
        "name": "Freilandanlage in Graal Müritz",
        "subtitle": "Freilandanlage in Graal Müritz",
        "image": "../images/projects/Gralmueritz.jpg",
        "filter": ["all", "freilandanlage"],
        "size": "lg:w-1/3 xl:w-1/4",
        "geo": {
            "lat": 54.250883999,
            "lng": 12.23808
        }
    },
    {
        "name": "Lichtenau",
        "subtitle": "Nachhaltige Stromversorgung durch Solaranlagen",
        "image": "../images/projects/Hartmann.jpg",
        "filter": ["all", "dachanlage"],
        "size": "lg:w-1/3 xl:w-1/4",
        "geo": {
            "lat": 51.616846999,
            "lng": 8.895788
        }
    },
    {
        "name": "Hattdorf",
        "subtitle": "Dachanlage in Hattdorf",
        "image": "../images/projects/Hattdorf1.jpg",
        "filter": ["all", "dachanlage"],
        "size": "lg:w-1/3 xl:w-1/4",
        "geo": {
            "lat": 52.359740753,
            "lng": 10.746299679
        }
    },
    {
        "name": "Hattdorf",
        "subtitle": "Dachanlage in Hattdorf",
        "image": "../images/projects/Hattdorf2.jpg",
        "filter": ["all", "dachanlage"],
        "size": "lg:w-1/3 xl:w-1/4",
        "geo": {
            "lat": 52.359740753,
            "lng": 10.746299679
        }
    },
    {
        "name": "Salzkotten",
        "subtitle": "Dachanlage in Salzkotten",
        "image": "../images/projects/Headquarter.jpg",
        "filter": ["all", "dachanlage"],
        "size": "lg:w-1/3 xl:w-1/4",
        "geo": {
            "lat": 51.671700999,
            "lng": 8.604953999
        }
    },
    {
        "name": "Halsbrücke",
        "subtitle": "Erneuerbare Energieprojekt",
        "image": "../images/projects/Halsbruecke.JPG",
        "street": null,
        "city": "Halsbrücke",
        "dpd": true,
        "filter": ["all", "dachanlage"],
        "geo": {
            "lat": 50.95693447222222,
            "lng": 13.337484111111111
        }
    },
    {
        "name": "Bielefeld",
        "subtitle": "Nachhaltige Energielösung",
        "image": "../images/projects/Kita-Bielefeld.JPG",
        "street": null,
        "city": "Bielefeld",
        "dpd": true,
        "filter": ["all", "dachanlage"],
        "geo": {
            "lat": 51.504329444444444,
            "lng": 6.748226916666667
        }
    },
    {
        "name": "Duisburg",
        "subtitle": "Die Kraft der Sonne nutzen",
        "image": "../images/projects/Kita-Duisburg.JPG",
        "street": null,
        "city": "Duisburg",
        "dpd": true,
        "filter": ["all", "dachanlage"],
        "geo": {
            "lat": 51.468079,
            "lng": 6.793004388888889
        }
    },
    {
        "name": "Wuppertal",
        "subtitle": "Die Kraft der Sonne nutzen",
        "image": "../images/projects/Kita-Wuppertal.JPG",
        "street": null,
        "city": "Wuppertal",
        "dpd": true,
        "filter": ["all", "dachanlage"],
        "geo": {
            "lat": 51.22097525,
            "lng": 7.07201275
        }
    },
    {
        "name": "Langenwetzendorf",
        "subtitle": "Effiziente Solaranlage",
        "image": "../images/projects/Langenwetzendorf-Vogtlandwerke.JPG",
        "street": null,
        "city": "Langenwetzendorf",
        "dpd": true,
        "filter": ["all", "dachanlage"],
        "geo": {
            "lat": 50.65560183333333,
            "lng": 12.107873916666666
        }
    },
    {
        "name": "Lüdenscheid",
        "subtitle": "Innovative Solartechnologie",
        "image": "../images/projects/Luedenscheid-Netto.JPG",
        "street": null,
        "city": "Lüdenscheid",
        "dpd": true,
        "filter": ["all", "dachanlage"],
        "geo": {
            "lat": 51.22842491666667,
            "lng": 7.63963125
        }
    },
    {
        "name": "Meinerzhagen",
        "subtitle": "Erneuerbare Energieprojekt",
        "image": "../images/projects/Meinerzhagen-Tebit.JPG",
        "street": null,
        "city": "Meinerzhagen",
        "dpd": true,
        "filter": ["all", "dachanlage"],
        "geo": {
            "lat": 51.09843447222222,
            "lng": 7.670996138888889
        }
    },
    {
        "name": "Meinerzhagen",
        "subtitle": "Erneuerbare Energieprojekt",
        "image": "../images/projects/Meinerzhagen-Tebit-2.JPG",
        "street": null,
        "city": "Meinerzhagen",
        "dpd": true,
        "filter": ["all", "dachanlage"],
        "geo": {
            "lat": 51.09892013888889,
            "lng": 7.67009175
        }
    },
    {
        "name": "Gelsenkirchen",
        "subtitle": "Innovative Solartechnologie",
        "image": "../images/projects/Dachanlage-Gelsenkirchen.jpg",
        "street": null,
        "city": "Gelsenkirchen",
        "dpd": true,
        "filter": ["all", "dachanlage"],
        "geo": {
            "lat": 51.550125305555554,
            "lng": 7.081986861111111
        }
    },
    {
        "name": "Hagen",
        "subtitle": "Effiziente Solaranlage",
        "image": "../images/projects/Hagen-Rudolf-Rafflenbeul.JPG",
        "street": null,
        "city": "Hagen",
        "dpd": true,
        "filter": ["all", "dachanlage"],
        "geo": {
            "lat": 51.349888222222226,
            "lng": 7.4881311111111115
        }
    },
    {
        "name": "Schloss Holte-Stukenbrock",
        "subtitle": "Umweltfreundliche Energiequelle",
        "image": "../images/projects/Schloss-Holte-Stukenbrock-Goerlitzerstr.JPG",
        "street": "Görlitzer Straße",
        "city": "Schloss Holte-Stukenbrock",
        "dpd": true,
        "filter": ["all", "dachanlage"],
        "geo": {
            "lat": 51.897614583333336,
            "lng": 8.62826413888889
        }
    },
    {
        "name": "Schwalmtal",
        "subtitle": "Effiziente Solaranlage",
        "image": "../images/projects/Schwalmtal-Bongartz.JPG",
        "street": "Bongartzstraße",
        "city": "Schwalmtal",
        "dpd": true,
        "filter": ["all", "dachanlage"],
        "geo": {
            "lat": 51.21960883333333,
            "lng": 6.272989333333333
        }
    },
    {
        "name": "Soest",
        "subtitle": "Die Kraft der Sonne nutzen",
        "image": "../images/projects/Soest-Magna.JPG",
        "street": null,
        "city": "Soest",
        "dpd": true,
        "filter": ["all", "dachanlage"],
        "geo": {
            "lat": 51.55366836111111,
            "lng": 8.147536944444443
        }
    },
    {
        "name": "Waldböckelheim",
        "subtitle": "Fortschrittliche Dach-Solarmodule",
        "image": "../images/projects/Waldboeckelheim-Sempaflex.JPG",
        "street": "Sempaflex-Straße",
        "city": "Waldböckelheim",
        "dpd": true,
        "filter": ["all", "dachanlage"],
        "geo": {
            "lat": 49.81278122222222,
            "lng": 7.704973555555556
        }
    },
    {
        "name": "Weidenberg",
        "subtitle": "Fortschrittliche Dach-Solarmodule",
        "image": "../images/projects/Weidenberg-Zapf.JPG",
        "street": "Zapfstraße",
        "city": "Weidenberg",
        "dpd": true,
        "filter": ["all", "dachanlage"],
        "geo": {
            "lat": 49.94589380555555,
            "lng": 11.710061083333333
        }
    },
    {
        "name": "Weidenberg",
        "subtitle": "Solarenergie für eine nachhaltige Zukunft",
        "image": "../images/projects/Weidenberg-Zapf-2.JPG",
        "street": "Zapfstraße",
        "city": "Weidenberg",
        "dpd": true,
        "filter": ["all", "dachanlage"],
        "geo": {
            "lat": 49.94709647222222,
            "lng": 11.709906416666666
        }
    },
    {
        "name": "Moers",
        "subtitle": "Umweltfreundliche Energiequelle",
        "image": "../images/projects/Moers-Oetzers.JPG",
        "street": "Oetzer Straße",
        "city": "Moers",
        "dpd": true,
        "filter": ["all", "dachanlage"],
        "geo": {
            "lat": 51.46316727777778,
            "lng": 6.6109575
        }
    },
    {
        "name": "Paderborn",
        "subtitle": "Die Kraft der Sonne nutzen",
        "image": "../images/projects/Paderborn-Bielefelder-strasse.JPG",
        "street": "Bielefelder Straße",
        "city": "Paderborn",
        "dpd": true,
        "filter": ["all", "dachanlage"],
        "geo": {
            "lat": 51.74999594444444,
            "lng": 8.716751666666667
        }
    },
    {
        "name": "Paderborn",
        "subtitle": "Solarenergie für eine nachhaltige Zukunft",
        "image": "../images/projects/Paderborn-Gruene-Weg.JPG",
        "street": "Grüner Weg",
        "city": "Paderborn",
        "dpd": true,
        "filter": ["all", "dachanlage"],
        "geo": {
            "lat": 51.706324083333335,
            "lng": 8.729228666666668
        }
    },
    {
        "name": "Rüthen",
        "subtitle": "Effiziente Solaranlage",
        "image": "../images/projects/Ruethen-Schwalmtal-Eckenstrasse-2.JPG",
        "street": "Eckenstraße 2",
        "city": "Rüthen",
        "dpd": true,
        "filter": ["all", "dachanlage"],
        "geo": {
            "lat": 51.57017997222223,
            "lng": 8.404482083333333
        }
    },
    {
        "name": "Amklam",
        "image": "../images/projects/Amklam.JPG",
        "city": "Amklam",
        "dpd": true,
        "filter": ["all", "dachanlage"],
        "geo": {
            "lat": 53.855296999,
            "lng": 13.693003001
        }
    },
    {
        "name": "Bremen",
        "image": "../images/projects/Bremen.JPG",
        "city": "Bremen",
        "dpd": true,
        "filter": ["all", "dachanlage"],
        "geo": {
            "lat": 53.075605999,
            "lng": 8.809338
        }
    },
    {
        "name": "Bülow",
        "image": "../images/projects/Buelow.JPG",
        "city": "Bülow",
        "dpd": true,
        "filter": ["all", "dachanlage"],
        "geo": {
            "lat": 53.590589999,
            "lng": 11.769151
        }
    },
    {
        "name": "Eystrup",
        "image": "../images/projects/Eystrup.JPG",
        "city": "Eystrup",
        "dpd": true,
        "filter": ["all", "dachanlage"],
        "geo": {
            "lat": 52.779254999,
            "lng": 9.212755
        }
    },
    {
        "name": "Waren Müritz",
        "image": "../images/projects/Waren-Mueritz.JPG",
        "city": "Waren Müritz",
        "dpd": true,
        "filter": ["all", "dachanlage"],
        "geo": {
            "lat": 53.513208999,
            "lng": 12.686242
        }
    },
    {
        "name": "Wilnsdorf",
        "image": "../images/projects/wilnsdorf.JPG",
        "city": "Wilnsdorf",
        "dpd": true,
        "filter": ["all", "dachanlage"],
        "geo": {
            "lat": 50.815391999,
            "lng": 8.103838
        }
    },
    {
        "name": "Wilnsdorf",
        "image": "../images/projects/wilnsdorf2.JPG",
        "city": "Wilnsdorf",
        "dpd": true,
        "filter": ["all", "dachanlage"],
        "geo": {
            "lat": 50.815391999,
            "lng": 8.103838
        }
    },
    {
        "name": "Berlin",
        "image": "../images/projects/Berlin.JPG",
        "city": "Berlin",
        "dpd": true,
        "filter": ["all", "dachanlage"],
        "geo": { "lat": 52.5200, "lng": 13.4050 }
    },
    {
        "name": "Fehrbellin",
        "image": "../images/projects/Fehrbellin.JPG",
        "city": "Fehrbellin",
        "dpd": true,
        "filter": ["all", "dachanlage"],
        "geo": { "lat": 52.8000, "lng": 12.7667 }
    },
    {
        "name": "Krevese",
        "image": "../images/projects/Krevese.JPG",
        "city": "Krevese",
        "dpd": true,
        "filter": ["all", "dachanlage"],
        "geo": { "lat": 52.8000, "lng": 11.7500 }
    },
    {
        "name": "Schlicksdorf",
        "image": "../images/projects/Schlicksdorf.JPG",
        "city": "Schlicksdorf",
        "dpd": true,
        "filter": ["all", "dachanlage"],
        "geo": { "lat": 51.5000, "lng": 10.5000 }
    },
    {
        "name": "Berlin",
        "image": "../images/projects/Berlin2.JPG",
        "city": "Berlin",
        "dpd": true,
        "filter": ["all", "dachanlage"],
        "geo": { "lat": 52.5200, "lng": 13.4050 }
    },
    {
        "name": "Oschersleben",
        "image": "../images/projects/Oschersleben.JPG",
        "city": "Oschersleben",
        "dpd": true,
        "filter": ["all", "freilandanlage"],
        "geo": { "lat": 52.0333, "lng": 11.2333 }
    },
    {
        "name": "Goettingen",
        "image": "../images/projects/Goettingen.JPG",
        "city": "Goettingen",
        "dpd": true,
        "filter": ["all", "dachanlage"],
        "geo": { "lat": 51.5333, "lng": 9.9333 }
    },
    {
        "name": "Flessau",
        "image": "../images/projects/Flessau.JPG",
        "city": "Flessau",
        "dpd": true,
        "filter": ["all", "dachanlage"],
        "geo": { "lat": 52.8000, "lng": 11.7500 }
    },
    {
        "name": "Einbeck",
        "image": "../images/projects/Einbeck.JPG",
        "city": "Einbeck",
        "dpd": true,
        "filter": ["all", "dachanlage"],
        "geo": { "lat": 51.8167, "lng": 9.8667 }
    },
    {
        "name": "Fermke",
        "image": "../images/projects/Fermke.JPG",
        "city": "Fermke",
        "dpd": true,
        "filter": ["all", "freilandanlage"],
        "geo": { "lat": 51.7000, "lng": 8.6000 }
    },
    {
        "name": "Salzkotten",
        "image": "../images/projects/Salzkotten.JPG",
        "city": "Salzkotten",
        "dpd": true,
        "filter": ["all", "dachanlage"],
        "geo": { "lat": 51.6717, "lng": 8.6000 }
    },
    {
        "name": "Bad Lippspringe",
        "image": "../images/projects/Bad-Lippspringe-2.JPG",
        "city": "Bad Lippspringe",
        "dpd": true,
        "filter": ["all", "dachanlage"],
        "geo": { "lat": 51.7833, "lng": 8.8167 }
    },
    {
        "name": "Bad Lippspringe",
        "image": "../images/projects/Bad-Lippspringe-3.JPG",
        "city": "Bad Lippspringe",
        "dpd": true,
        "filter": ["all", "dachanlage"],
        "geo": { "lat": 51.7833, "lng": 8.8167 }
    },
    {
        "name": "Hattorf am Harz",
        "image": "../images/projects/Hattorf-am-Harz.JPG",
        "city": "Hattorf am Harz",
        "dpd": true,
        "filter": ["all", "dachanlage"],
        "geo": { "lat": 51.6500, "lng": 10.2500 }
    },
    {
        "name": "Hoerden am Harz",
        "image": "../images/projects/Hoerden-am-Harz.JPG",
        "city": "Hoerden am Harz",
        "dpd": true,
        "filter": ["all", "dachanlage"],
        "geo": { "lat": 51.6500, "lng": 10.2500 }
    },
    {
        "name": "Paderborn",
        "image": "../images/projects/Paderborn.JPG",
        "city": "Paderborn",
        "dpd": true,
        "filter": ["all", "dachanlage"],
        "geo": { "lat": 51.7189, "lng": 8.7575 }
    },
    {
        "name": "Bad Lippspringe",
        "image": "../images/projects/Bad-Lippspringe-4.JPG",
        "city": "Bad Lippspringe",
        "dpd": true,
        "filter": ["all", "dachanlage"],
        "geo": { "lat": 51.7833, "lng": 8.8167 }
    },
    {
        "name": "Bad Lippspringe",
        "image": "../images/projects/Bad-Lippspringe-6.JPG",
        "city": "Bad Lippspringe",
        "dpd": true,
        "filter": ["all", "dachanlage"],
        "geo": { "lat": 51.7833, "lng": 8.8167 }
    },
    {
        "name": "Katharinenberg",
        "image": "../images/projects/Katharinenberg.JPG",
        "city": "Katharinenberg",
        "dpd": true,
        "filter": ["all", "dachanlage"],
        "geo": { "lat": 51.2000, "lng": 10.0000 }
    },
    {
        "name": "Bad Oeynhausen",
        "image": "../images/projects/Bad-Oeynhausen.JPG",
        "city": "Bad Oeynhausen",
        "dpd": true,
        "filter": ["all", "dachanlage"],
        "geo": { "lat": 52.2000, "lng": 8.8000 }
    },
    {
        "name": "Hattorf am Harz",
        "image": "../images/projects/Hattorf-am-Harz-2.JPG",
        "city": "Hattorf am Harz",
        "dpd": true,
        "filter": ["all", "dachanlage"],
        "geo": { "lat": 51.6500, "lng": 10.2500 }
    },
    {
        "name": "Bad Lippspringe",
        "image": "../images/projects/Bad-Lippspringe-5.JPG",
        "city": "Bad Lippspringe",
        "dpd": true,
        "filter": ["all", "dachanlage"],
        "geo": { "lat": 51.7833, "lng": 8.8167 }
    },
    {
        "name": "Bad Lippspringe",
        "image": "../images/projects/Bad-Lippspringe.JPG",
        "city": "Bad Lippspringe",
        "dpd": true,
        "filter": ["all", "dachanlage"],
        "geo": { "lat": 51.7833, "lng": 8.8167 }
    },
    {
        "name": "Lichtenau",
        "image": "../images/projects/Lichtenau.JPG",
        "city": "Lichtenau",
        "dpd": true,
        "filter": ["all", "dachanlage"],
        "geo": { "lat": 51.6167, "lng": 8.8833 }
    }
]
  